{"historial":[{"id":"country.10685795727764470","nombre":"Suecia","lng":17.6754094331351,"lat":64.9648751621697,"desc":"nubes","min":5,"max":5.56,"temp":5.28},{"id":"country.12740899366176230","nombre":"Turquía","lng":35.1795933806353,"lat":39.0604813685019,"desc":"muy nuboso","min":5,"max":7,"temp":6.34},{"id":"place.5284905161058790","nombre":"Loja, Provincia de Granada, España","lng":-4.15,"lat":37.16667,"desc":"cielo claro","min":15.56,"max":19,"temp":16.69},{"id":"place.11457142266311050","nombre":"Quito, Provincia de Pichincha, Ecuador","lng":-78.50972,"lat":-0.21861,"desc":"lluvia ligera","min":21,"max":21,"temp":21},{"id":"place.10708255346562040","nombre":"Madrid, Madrid, España","lng":-3.69194,"lat":40.41889,"desc":"cielo claro","min":16.67,"max":20,"temp":18.3}]}